mrun,RBD,CODIGO_REGION_EGRESO,NOMBRE_REGION_EGRESO,PTJE_NEM,PTJE_RANKING,PROM_CM_ACTUAL,rango_edad,anio_ing_carr_ori,anio_ing_carr_act,tipo_inst_1,tipo_inst_2,tipo_inst_3,cod_inst,nomb_inst,nomb_carrera,region_sede,provincia_sede,comuna_sede,nivel_global,nivel_carrera_1,forma_ingreso,NOMBRE_REGION_INGRESO,NOM_RBD,COD_REG_RB,TIPO_DEPEN,LATITUD_COL,LONGITUD_COL,NOMBRE_INS,REGIÓN,COMUNA,LATITUD_UNI,LONGITUD_UNI,TIPO_INST
13776824,9046.0,13,Metropolitana,775,780,"791,5",15 a 19 años,2021,2021,Universidades,Universidades CRUCH,Universidades Privadas CRUCH,86,PONTIFICIA UNIVERSIDAD CATOLICA DE CHILE,INGENIERIA COMERCIAL,Metropolitana,SANTIAGO,MACUL,Pregrado,Profesional Con Licenciatura,1- Ingreso Directo (regular),Metropolitana,COLEGIO THE GRANGE SCHOOL,13.0,3.0,-33.437946,-70.56862,,,,-33.485417,-70.616989,
18327063,8503.0,13,Metropolitana,647,693,522,15 a 19 años,2021,2021,Universidades,Universidades CRUCH,Universidades Estatales CRUCH,85,UNIVERSIDAD TECNOLOGICA METROPOLITANA,INGENIERIA EN BIOTECNOLOGIA,Metropolitana,SANTIAGO,ÑUÑOA,Pregrado,Profesional Con Licenciatura,1- Ingreso Directo (regular),Metropolitana,INST.SUP.DE COMERCIO EDUARDO FREI M.,13.0,1.0,-33.442097,-70.656301,,,,-33.452566,-70.591924,
23768815,12655.0,1,Tarapacá,775,850,597,15 a 19 años,2021,2021,Universidades,Universidades CRUCH,Universidades Estatales CRUCH,72,UNIVERSIDAD DE VALPARAISO,NUTRICION Y DIETETICA,Valparaíso,VALPARAISO,VALPARAISO,Pregrado,Profesional Con Licenciatura,1- Ingreso Directo (regular),Valparaíso,COLEGIO SAN PEDRO,1.0,2.0,-20.27458,-70.09288,,,,,,
14851720,12830.0,2,Antofagasta,631,645,384,15 a 19 años,2021,2021,Universidades,Universidades Privadas,Universidades Privadas,13,UNIVERSIDAD SANTO TOMAS,INGENIERIA COMERCIAL,Antofagasta,ANTOFAGASTA,ANTOFAGASTA,Pregrado,Profesional Con Licenciatura,1- Ingreso Directo (regular),Antofagasta,LICEO DE ESTUDIOS CONTABLES Y ADMINISTR.,2.0,2.0,-23.641199,-70.390808,,,,-23.560032,-70.40047,
4421540,13352.0,4,Coquimbo,807,850,672,15 a 19 años,2021,2021,Universidades,Universidades CRUCH,Universidades Estatales CRUCH,72,UNIVERSIDAD DE VALPARAISO,INGENIERIA EN NEGOCIOS INTERNACIONALES,Valparaíso,VALPARAISO,VALPARAISO,Pregrado,Profesional Con Licenciatura,1- Ingreso Directo (regular),Valparaíso,LICEO POLIV.PADRE JOSE HERDE P-LHER,4.0,1.0,-31.38916,-71.41494,,,,,,
2376849,26399.0,13,Metropolitana,517,517,"563,5",15 a 19 años,2021,2021,Universidades,Universidades Privadas,Universidades Privadas,45,UNIVERSIDAD DEL DESARROLLO,ARQUITECTURA,Metropolitana,SANTIAGO,LAS CONDES,Pregrado,Profesional Con Licenciatura,1- Ingreso Directo (regular),Metropolitana,COLEGIO PUMAHUE CHICUREO,13.0,3.0,-33.219913,-70.74448,UNIVERSIDAD DEL DESARROLLO,Metropolitana,LAS CONDES,-33.372476,-70.515748,Universidades privadas
15547601,2973.0,7,Maule,656,662,"535,5",15 a 19 años,2021,2021,Universidades,Universidades CRUCH,Universidades Privadas CRUCH,92,UNIVERSIDAD CATOLICA DEL MAULE,TRABAJO SOCIAL,Maule,TALCA,TALCA,Pregrado,Profesional Con Licenciatura,1- Ingreso Directo (regular),Maule,LICEO ABATE MOLINA,7.0,1.0,-35.424061,-71.646896,,,,-35.40421,-71.635118,
21870090,3885.0,16,Ñuble,679,781,508,15 a 19 años,2021,2021,Universidades,Universidades CRUCH,Universidades Privadas CRUCH,93,UNIVERSIDAD CATOLICA DE LA SANTISIMA CONCEPCION,TECNICO UNIVERSITARIO EN ENFERMERIA,Ñuble,DIGUILLIN,CHILLAN,Pregrado,Técnico de Nivel Superior,1- Ingreso Directo (regular),Ñuble,COLEGIO FRANCISCO DE ASIS,16.0,2.0,-36.70467,-71.890251,,,,,,
21472275,17829.0,16,Ñuble,499,499,"522,5",15 a 19 años,2021,2021,Universidades,Universidades Privadas,Universidades Privadas,38,UNIVERSIDAD ADVENTISTA DE CHILE,PSICOLOGIA,Ñuble,DIGUILLIN,CHILLAN,Pregrado,Profesional Con Licenciatura,1- Ingreso Directo (regular),Ñuble,CENTRO DE ESTUDIO LA ARAUCANA,16.0,2.0,-36.60773,-72.09564,,,,-36.637289,-71.997327,
10413408,17843.0,8,Biobío,449,451,456,15 a 19 años,2021,2021,Universidades,Universidades Privadas,Universidades Privadas,39,UNIVERSIDAD SAN SEBASTIAN,FONOAUDIOLOGIA,Biobío,CONCEPCION,CONCEPCION,Pregrado,Profesional Con Licenciatura,1- Ingreso Directo (regular),Biobío,COLEGIO AURORA DE CHILE CHIGUAYANTE,8.0,2.0,-36.92593,-73.025383,,,,,,
17990392,20478.0,2,Antofagasta,571,577,502,15 a 19 años,2021,2021,Universidades,Universidades Privadas,Universidades Privadas,13,UNIVERSIDAD SANTO TOMAS,NUTRICION Y DIETETICA,Coquimbo,ELQUI,LA SERENA,Pregrado,Profesional Con Licenciatura,1- Ingreso Directo (regular),Coquimbo,COLEGIO TÉCNICO INDUSTRIAL DON BOSCO - CALAMA,2.0,2.0,-22.445271,-68.939529,,,,-29.879084,-71.251949,
1455793,7773.0,10,Los Lagos,631,664,617,15 a 19 años,2021,2021,Universidades,Universidades Privadas,Universidades Privadas,39,UNIVERSIDAD SAN SEBASTIAN,KINESIOLOGIA,Los Lagos,LLANQUIHUE,PUERTO MONTT,Pregrado,Profesional Con Licenciatura,1- Ingreso Directo (regular),Los Lagos,ESCUELA EULOGIO GOYCOLEA GARAY,10.0,1.0,-41.773529,-73.128563,,,,-41.46105,-72.930594,
16285881,2863.0,7,Maule,577,576,492,15 a 19 años,2021,2021,Universidades,Universidades Privadas,Universidades Privadas,31,UNIVERSIDAD AUTONOMA DE CHILE,FONOAUDIOLOGIA,Maule,TALCA,TALCA,Pregrado,Profesional Con Licenciatura,1- Ingreso Directo (regular),Maule,COLEGIO ADVENTISTA DE MOLINA,7.0,2.0,-35.114899,-71.282631,,,,-35.40421,-71.635118,
12215856,16582.0,7,Maule,707,749,475,15 a 19 años,2021,2021,Universidades,Universidades CRUCH,Universidades Estatales CRUCH,78,UNIVERSIDAD DE TALCA,INGENIERIA COMERCIAL,Maule,TALCA,TALCA,Pregrado,Profesional Con Licenciatura,1- Ingreso Directo (regular),Maule,TECNOLOGICO NUEVO HORIZONTE,7.0,2.0,-34.981522,-71.249603,UNIVERSIDAD DE TALCA,Maule,TALCA,-35.40421,-71.635118,Universidades estatales cruch
22695527,2782.0,7,Maule,549,548,337,15 a 19 años,2021,2021,Universidades,Universidades CRUCH,Universidades Privadas CRUCH,92,UNIVERSIDAD CATOLICA DEL MAULE,ADMINISTRACION PUBLICA,Maule,CURICO,CURICO,Pregrado,Profesional Con Licenciatura,1- Ingreso Directo (regular),Maule,COLEGIO SAN RAMON NONATO,7.0,2.0,-34.989792,-71.241379,,,,,,
7207433,2782.0,7,Maule,426,429,548,15 a 19 años,2021,2021,Universidades,Universidades Privadas,Universidades Privadas,31,UNIVERSIDAD AUTONOMA DE CHILE,PEDAGOGIA EN EDUCACION FISICA,Maule,TALCA,TALCA,Pregrado,Profesional Con Licenciatura,1- Ingreso Directo (regular),Maule,COLEGIO SAN RAMON NONATO,7.0,2.0,-34.989792,-71.241379,,,,-35.40421,-71.635118,
4537253,2787.0,7,Maule,624,642,589,15 a 19 años,2021,2021,Universidades,Universidades CRUCH,Universidades Estatales CRUCH,71,UNIVERSIDAD DE SANTIAGO DE CHILE,ADMINISTRACION PUBLICA,Metropolitana,SANTIAGO,ESTACION CENTRAL,Pregrado,Profesional Con Licenciatura,1- Ingreso Directo (regular),Metropolitana,COLEGIO SANTO TOMAS DE CURICO,7.0,2.0,-34.988029,-71.239807,,,,-33.444477,-70.68375,
19056723,16424.0,7,Maule,555,571,624,15 a 19 años,2021,2021,Universidades,Universidades Privadas,Universidades Privadas,31,UNIVERSIDAD AUTONOMA DE CHILE,PSICOLOGIA,Maule,TALCA,TALCA,Pregrado,Profesional Con Licenciatura,1- Ingreso Directo (regular),Maule,LICEO BICENTENARIO DE MOLINA MARIA DEL TRÁNSITO DE LA CRUZ,7.0,1.0,-35.113079,-71.283493,,,,-35.40421,-71.635118,
5605741,16417.0,7,Maule,657,692,"544,5",15 a 19 años,2021,2021,Universidades,Universidades CRUCH,Universidades Privadas CRUCH,92,UNIVERSIDAD CATOLICA DEL MAULE,ENFERMERIA,Maule,CURICO,CURICO,Pregrado,Profesional Con Licenciatura,1- Ingreso Directo (regular),Maule,COLEGIO BICENTENARIO POLITECNICO SAN JOSE DE CURICO,7.0,2.0,-34.99118,-71.235397,,,,,,
14890827,10724.0,13,Metropolitana,631,631,"515,5",15 a 19 años,2021,2021,Universidades,Universidades Privadas,Universidades Privadas,20,UNIVERSIDAD ANDRES BELLO,MEDICINA VETERINARIA,Metropolitana,SANTIAGO,SANTIAGO,Pregrado,Profesional Con Licenciatura,1- Ingreso Directo (regular),Metropolitana,COLEGIO CARAMPANGUE,13.0,3.0,-33.664078,-70.93193,,,,-33.434819,-70.662722,
2710784,22306.0,10,Los Lagos,624,644,"562,5",15 a 19 años,2021,2021,Universidades,Universidades CRUCH,Universidades Privadas CRUCH,90,UNIVERSIDAD AUSTRAL DE CHILE,ENFERMERIA,Los Lagos,LLANQUIHUE,PUERTO MONTT,Pregrado,Profesional Con Licenciatura,1- Ingreso Directo (regular),Los Lagos,COLEGIO PUERTO MONTT,10.0,2.0,-41.47007,-72.932503,UNIVERSIDAD AUSTRAL DE CHILE,Los Lagos,PUERTO MONTT,-41.486126,-72.9,Universidades privadas cruch
2643766,704.0,4,Coquimbo,555,555,"547,5",15 a 19 años,2021,2021,Universidades,Universidades CRUCH,Universidades Estatales CRUCH,72,UNIVERSIDAD DE VALPARAISO,BIOLOGIA MARINA,Valparaíso,VALPARAISO,VALPARAISO,Pregrado,Profesional Con Licenciatura,1- Ingreso Directo (regular),Valparaíso,LICEO ALEJANDRO ALVAREZ JOFRE,4.0,1.0,-30.60228,-71.204826,,,,,,
15859819,22114.0,10,Los Lagos,566,595,"413,5",15 a 19 años,2021,2021,Universidades,Universidades CRUCH,Universidades Estatales CRUCH,84,UNIVERSIDAD DE LOS LAGOS,DERECHO,Los Lagos,OSORNO,OSORNO,Pregrado,Profesional Con Licenciatura,1- Ingreso Directo (regular),Los Lagos,LICEO PREMILITAR HÉROES DE LA CONCEPCIÓN,10.0,2.0,-40.57777,-73.123833,UNIVERSIDAD DE LOS LAGOS,Los Lagos,OSORNO,-40.571171,-73.132523,Universidades estatales cruch
2408903,9656.0,13,Metropolitana,695,772,600,15 a 19 años,2021,2021,Universidades,Universidades CRUCH,Universidades Estatales CRUCH,70,UNIVERSIDAD DE CHILE,INGENIERIA EN RECURSOS NATURALES RENOVABLES,Metropolitana,SANTIAGO,SANTIAGO,Pregrado,Profesional Con Licenciatura,1- Ingreso Directo (regular),Metropolitana,ESCUELA PARTICULAR PDTE.JOSE J.PRIETO,13.0,2.0,-33.577183,-70.630169,UNIVERSIDAD DE CHILE,Metropolitana,SANTIAGO,-33.435867,-70.645832,Universidades estatales cruch
7853737,9519.0,13,Metropolitana,624,663,525,15 a 19 años,2021,2021,Universidades,Universidades CRUCH,Universidades Privadas CRUCH,69,UNIVERSIDAD ALBERTO HURTADO,BACHILLERATO EN HUMANIDADES,Metropolitana,SANTIAGO,SANTIAGO,Pregrado,"Bachillerato, Ciclo Inicial o Plan Común",1- Ingreso Directo (regular),Metropolitana,COLEGIO BICENTENARIO SANTO CURA DE ARS,13.0,2.0,-33.506849,-70.652088,UNIVERSIDAD ALBERTO HURTADO,Metropolitana,SANTIAGO,-33.443917,-70.662204,Universidades privadas cruch
15863634,25434.0,13,Metropolitana,444,444,"482,5",15 a 19 años,2021,2021,Universidades,Universidades Privadas,Universidades Privadas,13,UNIVERSIDAD SANTO TOMAS,PSICOLOGIA,Metropolitana,SANTIAGO,SANTIAGO,Pregrado,Profesional Con Licenciatura,1- Ingreso Directo (regular),Metropolitana,COLEGIO PARTICULAR FORJADORES,13.0,2.0,-33.60894,-70.901852,,,,-33.434819,-70.662722,
7093160,8877.0,13,Metropolitana,635,635,"601,5",15 a 19 años,2021,2021,Universidades,Universidades CRUCH,Universidades Privadas CRUCH,34,UNIVERSIDAD DE LOS ANDES,NUTRICION Y DIETETICA,Metropolitana,SANTIAGO,LAS CONDES,Pregrado,Profesional Con Licenciatura,1- Ingreso Directo (regular),Metropolitana,COLEGIO DE LOS SAGRADOS CORAZONES,13.0,3.0,-33.378682,-70.55175,UNIVERSIDAD DE LOS ANDES,Metropolitana,LAS CONDES,-33.402614,-70.508281,Universidades privadas cruch
21208644,8871.0,13,Metropolitana,549,549,"635,5",15 a 19 años,2021,2021,Universidades,Universidades Privadas,Universidades Privadas,45,UNIVERSIDAD DEL DESARROLLO,ARQUITECTURA,Metropolitana,SANTIAGO,LAS CONDES,Pregrado,Profesional Con Licenciatura,1- Ingreso Directo (regular),Metropolitana,COLEGIO LOS ANDES DE VITACURA,13.0,3.0,-33.375508,-70.52658,UNIVERSIDAD DEL DESARROLLO,Metropolitana,LAS CONDES,-33.372476,-70.515748,Universidades privadas
2702297,2110.0,6,Lib. Gral B. O'Higgins,717,727,0,15 a 19 años,2021,2021,Universidades,Universidades CRUCH,Universidades Estatales CRUCH,895,UNIVERSIDAD DE O'HIGGINS,PEDAGOGIA EN MATEMATICA,Lib. Gral B. O'Higgins,CACHAPOAL,RANCAGUA,Pregrado,Profesional Con Licenciatura,1- Ingreso Directo (regular),Lib. Gral B. O'Higgins,LICEO MUNICIPAL OSCAR CASTRO ZUNIGA,6.0,1.0,-34.170921,-70.738098,UNIVERSIDAD DE O'HIGGINS,Lib. Gral B. O'Higgins,RANCAGUA,-34.164317,-70.741429,Universidades estatales cruch
12741793,25550.0,13,Metropolitana,570,586,"542,5",15 a 19 años,2021,2021,Universidades,Universidades Privadas,Universidades Privadas,10,UNIVERSIDAD MAYOR,INGENIERIA CIVIL INDUSTRIAL,Metropolitana,SANTIAGO,PROVIDENCIA,Pregrado,Profesional Con Licenciatura,1- Ingreso Directo (regular),Metropolitana,ESC. BASICA PART. BOSTON COLLEGE LA FARFANA,13.0,2.0,-33.490481,-70.768416,UNIVERSIDAD MAYOR,Metropolitana,PROVIDENCIA,-33.431348,-70.618449,Universidades privadas
14142305,8950.0,13,Metropolitana,689,703,599,15 a 19 años,2021,2021,Universidades,Universidades CRUCH,Universidades Estatales CRUCH,71,UNIVERSIDAD DE SANTIAGO DE CHILE,ARQUITECTURA,Metropolitana,SANTIAGO,ESTACION CENTRAL,Pregrado,Profesional Con Licenciatura,1- Ingreso Directo (regular),Metropolitana,COLEGIO COMPANIA DE MARIA-SEMINARIO,13.0,3.0,-33.437231,-70.63094,,,,-33.444477,-70.68375,
13261378,17662.0,16,Ñuble,620,643,501,15 a 19 años,2021,2021,Universidades,Universidades CRUCH,Universidades Estatales CRUCH,75,UNIVERSIDAD DEL BIO-BIO,DISEÑO GRAFICO,Ñuble,DIGUILLIN,CHILLAN,Pregrado,Profesional Con Licenciatura,1- Ingreso Directo (regular),Ñuble,LICEO BICENTENARIO CLAUDIO ARRAU LEÓN,16.0,1.0,-36.630539,-71.837532,,,,,,
20783904,10433.0,13,Metropolitana,771,845,"511,5",15 a 19 años,2021,2021,Universidades,Universidades CRUCH,Universidades Privadas CRUCH,88,UNIVERSIDAD TECNICA FEDERICO SANTA MARIA,INGENIERIA EN AVIACION COMERCIAL,Metropolitana,SANTIAGO,VITACURA,Pregrado,Profesional Con Licenciatura,1- Ingreso Directo (regular),Metropolitana,LICEO HUERTOS FAMILIARES,13.0,1.0,-33.130372,-70.802222,,,,-33.37757,-70.577393,
9900685,1214.0,5,Valparaíso,710,728,"646,5",15 a 19 años,2021,2021,Universidades,Universidades CRUCH,Universidades Privadas CRUCH,87,UNIVERSIDAD DE CONCEPCION,MEDICINA VETERINARIA,Biobío,CONCEPCION,CONCEPCION,Pregrado,Profesional Con Licenciatura,1- Ingreso Directo (regular),Biobío,COLEGIO MARIA AUXILIADORA,5.0,2.0,-32.83239,-70.601646,,,,,,
3535594,15624.0,6,Lib. Gral B. O'Higgins,689,710,532,15 a 19 años,2021,2021,Universidades,Universidades CRUCH,Universidades Estatales CRUCH,895,UNIVERSIDAD DE O'HIGGINS,TERAPIA OCUPACIONAL,Lib. Gral B. O'Higgins,CACHAPOAL,RANCAGUA,Pregrado,Profesional Con Licenciatura,1- Ingreso Directo (regular),Lib. Gral B. O'Higgins,COLEGIO MISTRAL,6.0,2.0,-34.290352,-71.311409,UNIVERSIDAD DE O'HIGGINS,Lib. Gral B. O'Higgins,RANCAGUA,-34.164317,-70.741429,Universidades estatales cruch
229196,14594.0,5,Valparaíso,710,752,"664,5",15 a 19 años,2021,2021,Universidades,Universidades CRUCH,Universidades Estatales CRUCH,72,UNIVERSIDAD DE VALPARAISO,ENFERMERIA,Valparaíso,VALPARAISO,VALPARAISO,Pregrado,Profesional Con Licenciatura,1- Ingreso Directo (regular),Valparaíso,COLEGIO QUILLOTA TERRANOVA,5.0,2.0,-32.86293,-71.237541,,,,,,
14665276,9757.0,13,Metropolitana,786,850,"709,5",15 a 19 años,2021,2021,Universidades,Universidades CRUCH,Universidades Estatales CRUCH,70,UNIVERSIDAD DE CHILE,TECNOLOGIA MEDICA,Metropolitana,SANTIAGO,SANTIAGO,Pregrado,Profesional Con Licenciatura,1- Ingreso Directo (regular),Metropolitana,CENTRO EDUCACIONAL SANTA CLARA,13.0,2.0,-33.521044,-70.657073,UNIVERSIDAD DE CHILE,Metropolitana,SANTIAGO,-33.435867,-70.645832,Universidades estatales cruch
22126782,9564.0,13,Metropolitana,786,847,"696,5",15 a 19 años,2021,2021,Universidades,Universidades Privadas,Universidades Privadas,31,UNIVERSIDAD AUTONOMA DE CHILE,MEDICINA,Metropolitana,SANTIAGO,PROVIDENCIA,Pregrado,Profesional Con Licenciatura,1- Ingreso Directo (regular),Metropolitana,COLEGIO PARROQUIAL SAN MIGUEL,13.0,2.0,-33.48703,-70.65014,,,,-33.418143,-70.602462,
14750102,11776.0,13,Metropolitana,717,735,706,15 a 19 años,2021,2021,Universidades,Universidades Privadas,Universidades Privadas,9,UNIVERSIDAD DEL ALBA,MEDICINA,Metropolitana,SANTIAGO,PROVIDENCIA,Pregrado,Profesional Con Licenciatura,1- Ingreso Directo (regular),Metropolitana,COLEGIO THE MAYFLOWER SCHOOL,13.0,3.0,-33.346077,-70.50415,,,,-33.418143,-70.602462,
965440,8904.0,13,Metropolitana,667,667,684,15 a 19 años,2021,2021,Universidades,Universidades CRUCH,Universidades Privadas CRUCH,34,UNIVERSIDAD DE LOS ANDES,NUTRICION Y DIETETICA,Metropolitana,SANTIAGO,LAS CONDES,Pregrado,Profesional Con Licenciatura,1- Ingreso Directo (regular),Metropolitana,COLEGIO SANTA URSULA,13.0,3.0,-33.393524,-70.59769,UNIVERSIDAD DE LOS ANDES,Metropolitana,LAS CONDES,-33.402614,-70.508281,Universidades privadas cruch
22559794,8877.0,13,Metropolitana,635,635,"665,5",15 a 19 años,2021,2021,Universidades,Universidades CRUCH,Universidades Privadas CRUCH,86,PONTIFICIA UNIVERSIDAD CATOLICA DE CHILE,COLLEGE ARTES Y HUMANIDADES (LICENCIATURA),Metropolitana,SANTIAGO,MACUL,Pregrado,"Bachillerato, Ciclo Inicial o Plan Común",1- Ingreso Directo (regular),Metropolitana,COLEGIO DE LOS SAGRADOS CORAZONES,13.0,3.0,-33.378682,-70.55175,,,,-33.485417,-70.616989,
4667948,25369.0,13,Metropolitana,727,770,665,15 a 19 años,2021,2021,Universidades,Universidades CRUCH,Universidades Estatales CRUCH,70,UNIVERSIDAD DE CHILE,BIOQUIMICA,Metropolitana,SANTIAGO,SANTIAGO,Pregrado,Profesional Con Licenciatura,1- Ingreso Directo (regular),Metropolitana,COLEGIO PARTICULAR ALICANTE,13.0,2.0,-33.475217,-70.757303,UNIVERSIDAD DE CHILE,Metropolitana,SANTIAGO,-33.435867,-70.645832,Universidades estatales cruch
6831504,1631.0,5,Valparaíso,667,681,635,15 a 19 años,2021,2021,Universidades,Universidades CRUCH,Universidades Estatales CRUCH,72,UNIVERSIDAD DE VALPARAISO,OBSTETRICIA Y PUERICULTURA,Valparaíso,SAN FELIPE DE ACONCAGUA,SAN FELIPE,Pregrado,Profesional Con Licenciatura,1- Ingreso Directo (regular),Valparaíso,"COLEGIO DE LOS SAGRADOS CORAZONES, PADRES FRANCESES",5.0,3.0,-33.017607,-71.526852,,,,-32.741343,-70.702695,
5122323,40289.0,5,Valparaíso,598,598,"555,5",15 a 19 años,2021,2021,Universidades,Universidades CRUCH,Universidades Privadas CRUCH,89,PONTIFICIA UNIVERSIDAD CATOLICA DE VALPARAISO,GEOGRAFIA,Valparaíso,VALPARAISO,VALPARAISO,Pregrado,Profesional Con Licenciatura,1- Ingreso Directo (regular),Valparaíso,INSTITUTO BICENTENARIO J.MIGUEL CARRERA,5.0,1.0,-33.597321,-71.613777,,,,,,
20400528,4805.0,8,Biobío,581,599,0,15 a 19 años,2021,2021,Universidades,Universidades Privadas,Universidades Privadas,13,UNIVERSIDAD SANTO TOMAS,KINESIOLOGIA,Biobío,CONCEPCION,CONCEPCION,Pregrado,Profesional Con Licenciatura,1- Ingreso Directo (regular),Biobío,LICEO PENCOPOLITANO,8.0,1.0,-36.738831,-73.00135,,,,,,
2444539,4762.0,8,Biobío,433,435,"502,5",15 a 19 años,2021,2021,Universidades,Universidades Privadas,Universidades Privadas,39,UNIVERSIDAD SAN SEBASTIAN,KINESIOLOGIA,Biobío,CONCEPCION,CONCEPCION,Pregrado,Profesional Con Licenciatura,1- Ingreso Directo (regular),Biobío,LICEO LA ASUNCION,8.0,2.0,-36.746559,-73.109711,,,,,,
9302109,4805.0,8,Biobío,577,590,458,15 a 19 años,2021,2021,Universidades,Universidades Privadas,Universidades Privadas,39,UNIVERSIDAD SAN SEBASTIAN,TERAPIA OCUPACIONAL,Biobío,CONCEPCION,CONCEPCION,Pregrado,Profesional Con Licenciatura,1- Ingreso Directo (regular),Biobío,LICEO PENCOPOLITANO,8.0,1.0,-36.738831,-73.00135,,,,,,
16143135,25349.0,13,Metropolitana,538,538,460,15 a 19 años,2021,2021,Universidades,Universidades CRUCH,Universidades Estatales CRUCH,75,UNIVERSIDAD DEL BIO-BIO,INGENIERIA CIVIL MECANICA,Biobío,CONCEPCION,CONCEPCION,Pregrado,Profesional Con Licenciatura,1- Ingreso Directo (regular),Biobío,COLEGIO PARTICULAR MELFORD COLLEGE,13.0,2.0,-33.361912,-70.728961,,,,,,
1290740,4553.0,8,Biobío,775,831,711,15 a 19 años,2021,2021,Universidades,Universidades CRUCH,Universidades Privadas CRUCH,90,UNIVERSIDAD AUSTRAL DE CHILE,MEDICINA,Los Ríos,VALDIVIA,VALDIVIA,Pregrado,Profesional Con Licenciatura,1- Ingreso Directo (regular),Los Ríos,LICEO DE NIÑAS,8.0,5.0,-36.830212,-73.050911,UNIVERSIDAD AUSTRAL DE CHILE,Los Ríos,VALDIVIA,-39.792732,-73.392719,Universidades privadas cruch
24255262,4277.0,8,Biobío,711,821,"442,5",15 a 19 años,2021,2021,Universidades,Universidades CRUCH,Universidades Privadas CRUCH,93,UNIVERSIDAD CATOLICA DE LA SANTISIMA CONCEPCION,LICENCIATURA EN DERECHO,Biobío,CONCEPCION,CONCEPCION,Pregrado,Profesional Con Licenciatura,1- Ingreso Directo (regular),Biobío,CENTRO EDUCACIÓN ADVENTISTA LOS ÁNGELES,8.0,2.0,-37.432491,-72.184799,,,,,,
15276661,4824.0,8,Biobío,610,652,"537,5",15 a 19 años,2021,2021,Universidades,Universidades Privadas,Universidades Privadas,39,UNIVERSIDAD SAN SEBASTIAN,PSICOLOGIA,Biobío,CONCEPCION,CONCEPCION,Pregrado,Profesional Con Licenciatura,1- Ingreso Directo (regular),Biobío,LICEO BICENTENARIO DE EXCELENCIA INDUSTRIAL DE TOME,8.0,4.0,-36.610809,-72.955467,,,,,,
17745613,18114.0,8,Biobío,652,656,498,15 a 19 años,2021,2021,Universidades,Universidades Privadas,Universidades Privadas,39,UNIVERSIDAD SAN SEBASTIAN,KINESIOLOGIA,Biobío,CONCEPCION,CONCEPCION,Pregrado,Profesional Con Licenciatura,1- Ingreso Directo (regular),Biobío,COLEGIO A-LAFKEN,8.0,2.0,-36.743118,-72.996758,,,,,,
2359172,17750.0,8,Biobío,538,538,"519,5",15 a 19 años,2021,2021,Universidades,Universidades Privadas,Universidades Privadas,13,UNIVERSIDAD SANTO TOMAS,PSICOLOGIA,Biobío,CONCEPCION,CONCEPCION,Pregrado,Profesional Con Licenciatura,1- Ingreso Directo (regular),Biobío,COLEGIO SALESIANO DE CONCEPCION,8.0,2.0,-36.81905,-73.034409,,,,,,
24154189,4630.0,8,Biobío,577,576,497,15 a 19 años,2021,2021,Universidades,Universidades CRUCH,Universidades Privadas CRUCH,93,UNIVERSIDAD CATOLICA DE LA SANTISIMA CONCEPCION,INGENIERIA COMERCIAL,Biobío,CONCEPCION,CONCEPCION,Pregrado,Profesional Con Licenciatura,1- Ingreso Directo (regular),Biobío,COLEGIO DEL SAGRADO CORAZON,8.0,2.0,-36.826019,-73.055687,,,,,,
12939081,4630.0,8,Biobío,646,656,576,15 a 19 años,2021,2021,Universidades,Universidades CRUCH,Universidades Privadas CRUCH,93,UNIVERSIDAD CATOLICA DE LA SANTISIMA CONCEPCION,LICENCIATURA EN DERECHO,Biobío,CONCEPCION,CONCEPCION,Pregrado,Profesional Con Licenciatura,1- Ingreso Directo (regular),Biobío,COLEGIO DEL SAGRADO CORAZON,8.0,2.0,-36.826019,-73.055687,,,,,,
10802964,4636.0,8,Biobío,555,555,518,15 a 19 años,2021,2021,Universidades,Universidades CRUCH,Universidades Privadas CRUCH,87,UNIVERSIDAD DE CONCEPCION,QUIMICO ANALISTA,Biobío,CONCEPCION,CONCEPCION,Pregrado,Profesional Con Licenciatura,1- Ingreso Directo (regular),Biobío,COLEGIO MARCELA PAZ,8.0,2.0,-36.815559,-73.051361,,,,,,
5664695,4555.0,8,Biobío,506,506,"527,5",15 a 19 años,2021,2021,Universidades,Universidades Privadas,Universidades Privadas,39,UNIVERSIDAD SAN SEBASTIAN,ARQUITECTURA,Biobío,CONCEPCION,CONCEPCION,Pregrado,Profesional Con Licenciatura,1- Ingreso Directo (regular),Biobío,LICEO ENRIQUE MOLINA GARMENDIA,8.0,5.0,-36.831501,-73.04689,,,,,,
20517487,4822.0,8,Biobío,517,517,"561,5",15 a 19 años,2021,2021,Universidades,Universidades Privadas,Universidades Privadas,20,UNIVERSIDAD ANDRES BELLO,MEDICINA VETERINARIA,Biobío,CONCEPCION,CONCEPCION,Pregrado,Profesional Con Licenciatura,1- Ingreso Directo (regular),Biobío,COLEGIO EL REFUGIO,8.0,2.0,-36.74073,-72.997993,,,,,,
23086422,17782.0,8,Biobío,818,850,491,15 a 19 años,2021,2021,Universidades,Universidades CRUCH,Universidades Estatales CRUCH,75,UNIVERSIDAD DEL BIO-BIO,INGENIERIA COMERCIAL,Biobío,CONCEPCION,CONCEPCION,Pregrado,Profesional Con Licenciatura,1- Ingreso Directo (regular),Biobío,LICEO RIOS DE CHILE,8.0,1.0,-36.708839,-72.974792,,,,,,
14743009,3638.0,16,Ñuble,814,850,728,15 a 19 años,2021,2021,Universidades,Universidades CRUCH,Universidades Estatales CRUCH,75,UNIVERSIDAD DEL BIO-BIO,INGENIERIA EN RECURSOS NATURALES,Ñuble,DIGUILLIN,CHILLAN,Pregrado,Profesional Con Licenciatura,1- Ingreso Directo (regular),Ñuble,LICEO BICENTENARIO MARTA BRUNET CÁRAVES,16.0,1.0,-36.60717,-72.107338,,,,,,
323563,4574.0,8,Biobío,743,835,"568,5",15 a 19 años,2021,2021,Universidades,Universidades CRUCH,Universidades Privadas CRUCH,87,UNIVERSIDAD DE CONCEPCION,PEDAGOGIA EN MATEMATICAS,Biobío,CONCEPCION,CONCEPCION,Pregrado,Profesional Con Licenciatura,1- Ingreso Directo (regular),Biobío,COLEGIO BICENTENARIO ESPAÑA,8.0,5.0,-36.824348,-73.036507,,,,,,
11871298,17859.0,8,Biobío,814,847,736,15 a 19 años,2021,2021,Universidades,Universidades CRUCH,Universidades Privadas CRUCH,86,PONTIFICIA UNIVERSIDAD CATOLICA DE CHILE,INGENIERIA CIVIL,Metropolitana,SANTIAGO,MACUL,Pregrado,Profesional Con Licenciatura,1- Ingreso Directo (regular),Metropolitana,COLEGIO ALMONDALE,8.0,2.0,-36.83419,-73.103149,,,,-33.485417,-70.616989,
5996654,18114.0,8,Biobío,624,624,"464,5",15 a 19 años,2021,2021,Universidades,Universidades CRUCH,Universidades Privadas CRUCH,93,UNIVERSIDAD CATOLICA DE LA SANTISIMA CONCEPCION,PERIODISMO,Biobío,CONCEPCION,CONCEPCION,Pregrado,Profesional Con Licenciatura,1- Ingreso Directo (regular),Biobío,COLEGIO A-LAFKEN,8.0,2.0,-36.743118,-72.996758,,,,,,
2460331,4630.0,8,Biobío,753,787,"629,5",15 a 19 años,2021,2021,Universidades,Universidades CRUCH,Universidades Privadas CRUCH,87,UNIVERSIDAD DE CONCEPCION,DERECHO,Biobío,CONCEPCION,CONCEPCION,Pregrado,Profesional Con Licenciatura,1- Ingreso Directo (regular),Biobío,COLEGIO DEL SAGRADO CORAZON,8.0,2.0,-36.826019,-73.055687,,,,,,
1391867,4555.0,8,Biobío,460,460,"472,5",15 a 19 años,2021,2021,Universidades,Universidades Privadas,Universidades Privadas,20,UNIVERSIDAD ANDRES BELLO,MEDICINA VETERINARIA,Biobío,CONCEPCION,CONCEPCION,Pregrado,Profesional Con Licenciatura,1- Ingreso Directo (regular),Biobío,LICEO ENRIQUE MOLINA GARMENDIA,8.0,5.0,-36.831501,-73.04689,,,,,,
20083934,4805.0,8,Biobío,613,640,613,15 a 19 años,2021,2021,Universidades,Universidades CRUCH,Universidades Estatales CRUCH,75,UNIVERSIDAD DEL BIO-BIO,INGENIERIA CIVIL,Biobío,CONCEPCION,CONCEPCION,Pregrado,Profesional Con Licenciatura,1- Ingreso Directo (regular),Biobío,LICEO PENCOPOLITANO,8.0,1.0,-36.738831,-73.00135,,,,,,
14007414,4630.0,8,Biobío,706,729,"534,5",15 a 19 años,2021,2021,Universidades,Universidades CRUCH,Universidades Privadas CRUCH,93,UNIVERSIDAD CATOLICA DE LA SANTISIMA CONCEPCION,LICENCIATURA EN DERECHO,Biobío,CONCEPCION,CONCEPCION,Pregrado,Profesional Con Licenciatura,1- Ingreso Directo (regular),Biobío,COLEGIO DEL SAGRADO CORAZON,8.0,2.0,-36.826019,-73.055687,,,,,,
15810510,17885.0,8,Biobío,764,835,576,15 a 19 años,2021,2021,Universidades,Universidades CRUCH,Universidades Privadas CRUCH,87,UNIVERSIDAD DE CONCEPCION,TRADUCCION/INTERPRETACION EN IDIOMAS EXTRANJEROS,Biobío,CONCEPCION,CONCEPCION,Pregrado,Profesional Con Licenciatura,1- Ingreso Directo (regular),Biobío,CENTRO EDUCACIONAL BICENTENARIO ALTOS DE TOMÉ,8.0,1.0,-36.60215,-72.958054,,,,,,
13140713,4630.0,8,Biobío,684,702,613,15 a 19 años,2021,2021,Universidades,Universidades Privadas,Universidades Privadas,39,UNIVERSIDAD SAN SEBASTIAN,TECNOLOGIA MEDICA,Biobío,CONCEPCION,CONCEPCION,Pregrado,Profesional Con Licenciatura,1- Ingreso Directo (regular),Biobío,COLEGIO DEL SAGRADO CORAZON,8.0,2.0,-36.826019,-73.055687,,,,,,
2893503,4686.0,8,Biobío,566,566,526,15 a 19 años,2021,2021,Universidades,Universidades CRUCH,Universidades Estatales CRUCH,75,UNIVERSIDAD DEL BIO-BIO,INGENIERIA COMERCIAL,Biobío,CONCEPCION,CONCEPCION,Pregrado,Profesional Con Licenciatura,1- Ingreso Directo (regular),Biobío,INSTITUTO DE HUMANIDADES ALFREDO SILVA S,8.0,3.0,-36.83108,-73.04507,,,,,,
9402726,4536.0,8,Biobío,689,711,518,15 a 19 años,2021,2021,Universidades,Universidades CRUCH,Universidades Privadas CRUCH,93,UNIVERSIDAD CATOLICA DE LA SANTISIMA CONCEPCION,LICENCIATURA EN DERECHO,Biobío,CONCEPCION,CONCEPCION,Pregrado,Profesional Con Licenciatura,1- Ingreso Directo (regular),Biobío,LICEO COMERCIAL FEMENINO DE CONCEPCION,8.0,4.0,-36.823841,-73.056664,,,,,,
5563822,17782.0,8,Biobío,786,850,626,15 a 19 años,2021,2021,Universidades,Universidades CRUCH,Universidades Privadas CRUCH,87,UNIVERSIDAD DE CONCEPCION,PEDAGOGIA EN MATEMATICAS,Biobío,CONCEPCION,CONCEPCION,Pregrado,Profesional Con Licenciatura,1- Ingreso Directo (regular),Biobío,LICEO RIOS DE CHILE,8.0,1.0,-36.708839,-72.974792,,,,,,
5130476,4630.0,8,Biobío,663,676,588,15 a 19 años,2021,2021,Universidades,Universidades CRUCH,Universidades Privadas CRUCH,87,UNIVERSIDAD DE CONCEPCION,PEDAGOGIA EN INGLES,Biobío,CONCEPCION,CONCEPCION,Pregrado,Profesional Con Licenciatura,1- Ingreso Directo (regular),Biobío,COLEGIO DEL SAGRADO CORAZON,8.0,2.0,-36.826019,-73.055687,,,,,,
18638423,4822.0,8,Biobío,641,663,623,15 a 19 años,2021,2021,Universidades,Universidades CRUCH,Universidades Privadas CRUCH,93,UNIVERSIDAD CATOLICA DE LA SANTISIMA CONCEPCION,LICENCIATURA EN DERECHO,Biobío,CONCEPCION,CONCEPCION,Pregrado,Profesional Con Licenciatura,1- Ingreso Directo (regular),Biobío,COLEGIO EL REFUGIO,8.0,2.0,-36.74073,-72.997993,,,,,,
15968090,4805.0,8,Biobío,760,850,"457,5",15 a 19 años,2021,2021,Universidades,Universidades CRUCH,Universidades Privadas CRUCH,87,UNIVERSIDAD DE CONCEPCION,EDUCACION PARVULARIA,Biobío,CONCEPCION,CONCEPCION,Pregrado,Profesional Con Licenciatura,1- Ingreso Directo (regular),Biobío,LICEO PENCOPOLITANO,8.0,1.0,-36.738831,-73.00135,,,,,,
16935391,4659.0,8,Biobío,495,495,458,15 a 19 años,2021,2021,Universidades,Universidades Privadas,Universidades Privadas,39,UNIVERSIDAD SAN SEBASTIAN,FONOAUDIOLOGIA,Biobío,CONCEPCION,CONCEPCION,Pregrado,Profesional Con Licenciatura,1- Ingreso Directo (regular),Biobío,COLEGIO LA PROVIDENCIA,8.0,2.0,-36.822498,-73.03978,,,,,,
23979410,4822.0,8,Biobío,684,736,"593,5",15 a 19 años,2021,2021,Universidades,Universidades CRUCH,Universidades Estatales CRUCH,75,UNIVERSIDAD DEL BIO-BIO,INGENIERIA CIVIL QUIMICA,Biobío,CONCEPCION,CONCEPCION,Pregrado,Profesional Con Licenciatura,1- Ingreso Directo (regular),Biobío,COLEGIO EL REFUGIO,8.0,2.0,-36.74073,-72.997993,,,,,,
12230753,4574.0,8,Biobío,577,594,"570,5",15 a 19 años,2021,2021,Universidades,Universidades CRUCH,Universidades Privadas CRUCH,87,UNIVERSIDAD DE CONCEPCION,PEDAGOGIA EN ESPAÑOL,Biobío,CONCEPCION,CONCEPCION,Pregrado,Profesional Con Licenciatura,1- Ingreso Directo (regular),Biobío,COLEGIO BICENTENARIO ESPAÑA,8.0,5.0,-36.824348,-73.036507,,,,,,
10094068,17750.0,8,Biobío,663,671,"603,5",15 a 19 años,2021,2021,Universidades,Universidades CRUCH,Universidades Estatales CRUCH,75,UNIVERSIDAD DEL BIO-BIO,INGENIERIA CIVIL EN AUTOMATIZACION,Biobío,CONCEPCION,CONCEPCION,Pregrado,Profesional Con Licenciatura,1- Ingreso Directo (regular),Biobío,COLEGIO SALESIANO DE CONCEPCION,8.0,2.0,-36.81905,-73.034409,,,,,,
18104531,17900.0,8,Biobío,663,664,610,15 a 19 años,2021,2021,Universidades,Universidades CRUCH,Universidades Privadas CRUCH,87,UNIVERSIDAD DE CONCEPCION,INGENIERIA CIVIL METALURGICA,Biobío,CONCEPCION,CONCEPCION,Pregrado,Profesional Con Licenciatura,1- Ingreso Directo (regular),Biobío,COLEGIO METODISTA CONCEPCION,8.0,2.0,-36.823059,-73.050194,,,,,,
11162666,17915.0,8,Biobío,592,592,525,15 a 19 años,2021,2021,Universidades,Universidades Privadas,Universidades Privadas,39,UNIVERSIDAD SAN SEBASTIAN,INGENIERIA CIVIL INDUSTRIAL,Biobío,CONCEPCION,CONCEPCION,Pregrado,Profesional Con Licenciatura,1- Ingreso Directo (regular),Biobío,COLEGIO POLIVALENTE DOMINGO PARRA CORVALAN,8.0,2.0,-36.987011,-73.152603,,,,,,
18537141,25202.0,13,Metropolitana,646,648,"706,5",15 a 19 años,2021,2021,Universidades,Universidades CRUCH,Universidades Privadas CRUCH,87,UNIVERSIDAD DE CONCEPCION,DERECHO,Biobío,CONCEPCION,CONCEPCION,Pregrado,Profesional Con Licenciatura,1- Ingreso Directo (regular),Biobío,COLEGIO  PUMAHUE HUECHURABA,13.0,3.0,-33.357367,-70.66317,,,,,,
15866952,4824.0,8,Biobío,743,823,454,15 a 19 años,2021,2021,Universidades,Universidades Privadas,Universidades Privadas,39,UNIVERSIDAD SAN SEBASTIAN,TECNOLOGIA MEDICA,Biobío,CONCEPCION,CONCEPCION,Pregrado,Profesional Con Licenciatura,1- Ingreso Directo (regular),Biobío,LICEO BICENTENARIO DE EXCELENCIA INDUSTRIAL DE TOME,8.0,4.0,-36.610809,-72.955467,,,,,,
5187132,17843.0,8,Biobío,663,688,599,15 a 19 años,2021,2021,Universidades,Universidades CRUCH,Universidades Privadas CRUCH,87,UNIVERSIDAD DE CONCEPCION,INGENIERIA AMBIENTAL,Biobío,CONCEPCION,CONCEPCION,Pregrado,Profesional Con Licenciatura,1- Ingreso Directo (regular),Biobío,COLEGIO AURORA DE CHILE CHIGUAYANTE,8.0,2.0,-36.92593,-73.025383,,,,,,
11696652,4680.0,8,Biobío,506,506,468,15 a 19 años,2021,2021,Universidades,Universidades Privadas,Universidades Privadas,20,UNIVERSIDAD ANDRES BELLO,DERECHO,Biobío,CONCEPCION,CONCEPCION,Pregrado,Profesional Con Licenciatura,1- Ingreso Directo (regular),Biobío,COLEGIO BAUTISTA DE CONCEPCION,8.0,3.0,-36.823565,-73.05983,,,,,,
1448347,4824.0,8,Biobío,775,850,614,15 a 19 años,2021,2021,Universidades,Universidades CRUCH,Universidades Estatales CRUCH,75,UNIVERSIDAD DEL BIO-BIO,INGENIERIA DE EJECUCION EN ELECTRONICA,Biobío,CONCEPCION,CONCEPCION,Pregrado,Profesional Sin Licenciatura,1- Ingreso Directo (regular),Biobío,LICEO BICENTENARIO DE EXCELENCIA INDUSTRIAL DE TOME,8.0,4.0,-36.610809,-72.955467,,,,,,
1204599,2109.0,6,Lib. Gral B. O'Higgins,587,602,"595,5",15 a 19 años,2021,2021,Universidades,Universidades CRUCH,Universidades Estatales CRUCH,895,UNIVERSIDAD DE O'HIGGINS,ENFERMERIA,Lib. Gral B. O'Higgins,CACHAPOAL,RANCAGUA,Pregrado,Profesional Con Licenciatura,1- Ingreso Directo (regular),Lib. Gral B. O'Higgins,LICEO DE NIÑAS DE RANCAGUA,6.0,1.0,-34.170441,-70.741074,UNIVERSIDAD DE O'HIGGINS,Lib. Gral B. O'Higgins,RANCAGUA,-34.164317,-70.741429,Universidades estatales cruch
17137074,3479.0,7,Maule,490,490,"502,5",15 a 19 años,2021,2021,Universidades,Universidades Privadas,Universidades Privadas,31,UNIVERSIDAD AUTONOMA DE CHILE,PSICOLOGIA,Maule,TALCA,TALCA,Pregrado,Profesional Con Licenciatura,1- Ingreso Directo (regular),Maule,LICEO MANUEL MONTT,7.0,1.0,-35.597359,-71.723297,,,,-35.40421,-71.635118,
7158699,13565.0,4,Coquimbo,609,618,"488,5",15 a 19 años,2021,2021,Universidades,Universidades CRUCH,Universidades Estatales CRUCH,74,UNIVERSIDAD DE LA SERENA,INGENIERIA EN COMPUTACION,Coquimbo,ELQUI,LA SERENA,Pregrado,Profesional Con Licenciatura,1- Ingreso Directo (regular),Coquimbo,COLEGIO MANANTIALES DE ELQUI,4.0,2.0,-29.88298,-71.250931,UNIVERSIDAD DE LA SERENA,Coquimbo,LA SERENA,-29.879084,-71.251949,Universidades estatales cruch
16559966,367.0,2,Antofagasta,760,798,"502,5",15 a 19 años,2021,2021,Universidades,Universidades CRUCH,Universidades Privadas CRUCH,91,UNIVERSIDAD CATOLICA DEL NORTE,INGENIERIA CIVIL,Antofagasta,ANTOFAGASTA,ANTOFAGASTA,Pregrado,Profesional Con Licenciatura,1- Ingreso Directo (regular),Antofagasta,COMPLEJO EDUCATIVO JUAN JOSE LATORRE BENAVENT,2.0,1.0,-23.10523,-70.440666,,,,-23.560032,-70.40047,
23506800,8394.0,11,Aysén,555,561,"526,5",15 a 19 años,2021,2021,Universidades,Universidades CRUCH,Universidades Estatales CRUCH,84,UNIVERSIDAD DE LOS LAGOS,ENFERMERIA,Los Lagos,LLANQUIHUE,PUERTO MONTT,Pregrado,Profesional Con Licenciatura,1- Ingreso Directo (regular),Los Lagos,LICEO BICENTENARIO LUISA RABANAL PALMA,11.0,1.0,-46.540421,-71.72155,UNIVERSIDAD DE LOS LAGOS,Los Lagos,PUERTO MONTT,-41.46105,-72.930594,Universidades estatales cruch
12190596,14716.0,5,Valparaíso,727,827,"653,5",15 a 19 años,2021,2021,Universidades,Universidades CRUCH,Universidades Privadas CRUCH,89,PONTIFICIA UNIVERSIDAD CATOLICA DE VALPARAISO,LICENCIATURA EN FISICA,Valparaíso,VALPARAISO,VALPARAISO,Pregrado,Licenciatura No Conducente a Título,1- Ingreso Directo (regular),Valparaíso,PAN AMERICAN COLLEGE VINA DEL MAR,5.0,2.0,-33.029819,-71.5336,,,,,,
109157,8394.0,11,Aysén,479,479,432,15 a 19 años,2021,2021,Universidades,Universidades CRUCH,Universidades Estatales CRUCH,77,UNIVERSIDAD DE MAGALLANES,TECNICO EN NIVEL SUPERIOR EN EDUCACION PARVULARIA,Aysén,COYHAIQUE,COYHAIQUE,Pregrado,Técnico de Nivel Superior,1- Ingreso Directo (regular),Aysén,LICEO BICENTENARIO LUISA RABANAL PALMA,11.0,1.0,-46.540421,-71.72155,UNIVERSIDAD DE MAGALLANES,Aysén,COYHAIQUE,-45.568566,-72.071274,Universidades estatales cruch
11656515,8394.0,11,Aysén,727,795,0,15 a 19 años,2021,2021,Universidades,Universidades Privadas,Universidades Privadas,45,UNIVERSIDAD DEL DESARROLLO,ENFERMERIA,Metropolitana,SANTIAGO,LAS CONDES,Pregrado,Profesional Con Licenciatura,1- Ingreso Directo (regular),Metropolitana,LICEO BICENTENARIO LUISA RABANAL PALMA,11.0,1.0,-46.540421,-71.72155,UNIVERSIDAD DEL DESARROLLO,Metropolitana,LAS CONDES,-33.372476,-70.515748,Universidades privadas
3476402,9246.0,13,Metropolitana,656,664,"535,5",15 a 19 años,2021,2021,Universidades,Universidades CRUCH,Universidades Privadas CRUCH,69,UNIVERSIDAD ALBERTO HURTADO,ARQUEOLOGIA,Metropolitana,SANTIAGO,SANTIAGO,Pregrado,Profesional Con Licenciatura,1- Ingreso Directo (regular),Metropolitana,COLEGIO SAN AGUSTIN,13.0,3.0,-33.459222,-70.57815,UNIVERSIDAD ALBERTO HURTADO,Metropolitana,SANTIAGO,-33.443917,-70.662204,Universidades privadas cruch
12151216,2635.0,6,Lib. Gral B. O'Higgins,706,731,"681,5",15 a 19 años,2021,2021,Universidades,Universidades CRUCH,Universidades Estatales CRUCH,70,UNIVERSIDAD DE CHILE,PROGRAMA ACADEMICO DE BACHILLERATO,Metropolitana,SANTIAGO,SANTIAGO,Pregrado,"Bachillerato, Ciclo Inicial o Plan Común",1- Ingreso Directo (regular),Metropolitana,LICEO AGUSTIN ROSS EDWARDS,6.0,1.0,-34.39011,-72.002296,UNIVERSIDAD DE CHILE,Metropolitana,SANTIAGO,-33.435867,-70.645832,Universidades estatales cruch
4674180,2656.0,6,Lib. Gral B. O'Higgins,710,733,0,15 a 19 años,2021,2021,Universidades,Universidades CRUCH,Universidades Estatales CRUCH,71,UNIVERSIDAD DE SANTIAGO DE CHILE,INGENIERIA COMERCIAL,Metropolitana,SANTIAGO,ESTACION CENTRAL,Pregrado,Profesional Con Licenciatura,1- Ingreso Directo (regular),Metropolitana,COLEGIO DE LA PRECIOSA SANGRE,6.0,2.0,-34.389999,-72.008904,,,,-33.444477,-70.68375,
3606901,2635.0,6,Lib. Gral B. O'Higgins,695,719,"561,5",15 a 19 años,2021,2021,Universidades,Universidades CRUCH,Universidades Estatales CRUCH,72,UNIVERSIDAD DE VALPARAISO,NUTRICION Y DIETETICA,Valparaíso,VALPARAISO,VALPARAISO,Pregrado,Profesional Con Licenciatura,1- Ingreso Directo (regular),Valparaíso,LICEO AGUSTIN ROSS EDWARDS,6.0,1.0,-34.39011,-72.002296,,,,,,
20148507,6752.0,14,Los Ríos,539,549,"419,5",15 a 19 años,2021,2021,Universidades,Universidades Privadas,Universidades Privadas,13,UNIVERSIDAD SANTO TOMAS,DERECHO,Los Ríos,VALDIVIA,VALDIVIA,Pregrado,Profesional Con Licenciatura,1- Ingreso Directo (regular),Los Ríos,LICEO TECNICO VALDIVIA,14.0,1.0,-39.82925,-73.221237,,,,-39.792732,-73.392719,
19614085,7015.0,14,Los Ríos,738,767,"542,5",15 a 19 años,2021,2021,Universidades,Universidades CRUCH,Universidades Privadas CRUCH,90,UNIVERSIDAD AUSTRAL DE CHILE,TERAPIA OCUPACIONAL,Los Ríos,VALDIVIA,VALDIVIA,Pregrado,Profesional Con Licenciatura,1- Ingreso Directo (regular),Los Ríos,LICEO BICENTENARIO DE EXCELENCIA CARLOS HAVERBECK RICHTER,14.0,1.0,-39.889389,-73.432877,UNIVERSIDAD AUSTRAL DE CHILE,Los Ríos,VALDIVIA,-39.792732,-73.392719,Universidades privadas cruch
